id,address,car_wash,comp_name,cvs_exist,diesel_price,gasoline_price,lat,lon,name,tel,unique_id
1,서울 양천구 안양천로 657 (신정동),t,SKE,t,2297,2287,37.50582261963296,126.87082796099516,평화주유소,02-2647-2122,A0001008
2,서울 구로구 구일로 94 (구로동),t,SKE,t,2048,1948,37.49349406631685,126.87234343427441,SK구로주유소,02-868-5758,A0000833
3,서울 양천구 안양천로 663 (신정동),t,HDO,t,2037,1997,37.506560407349816,126.8710798780069,신정동주유소,02-2651-5189,A0001031
4,서울 구로구 경인로 558 (구로동),t,SKE,t,2047,1947,37.502465387472,126.87981518270735,구인주유소,02-2677-5010,A0000791
5,경기 광명시 남부순환로 997 (철산동),t,GSC,t,2054,1967,37.4926885921796,126.8677326155891,현대석유(주)현대주유소,02-2616-0051,A0006874
6,서울 구로구 구로동로 187 (구로제2동),t,HDO,t,2047,1947,37.49511738060843,126.8823374601423,신성주유소,02-866-5189,A0000827
7,서울 양천구 목동남로 62,t,SKE,t,2089,2014,37.50946468457883,126.86631603870637,SK에너지(주) 신평,02-2654-5145,A0001022
8,서울 양천구 목동로 17,t,HDO,t,2041,2011,37.510520134632,126.87095463425692,현대오일뱅크(주)직영 양천셀프주유소,02-2644-5185,A0000996
9,경기 광명시 안양천로 463 (철산동),t,SKE,t,2098,2058,37.48893896860892,126.86931584855459,IN-N-OUT주유소,02-3666-5151,A0008289
10,서울 구로구 구로동로 137 (구로동),t,GSC,t,2560,2540,37.49082766735549,126.88367604912476,구로주유소,02-857-1251,A0000792
11,서울 구로구 고척로 199 (고척동),t,SOL,t,2157,2077,37.505131787192326,126.85531673627932,근린공원주유소,02-2066-3700,A0006667
12,서울 구로구 구로중앙로 76 (구로동),t,GSC,t,2067,1977,37.496177092672696,126.8884682369232,(주)한미석유구로그린주유소,02-861-5189,A0000849
13,경기 광명시 시청로 115 (철산동),t,SOL,t,2065,1985,37.48641890274096,126.86570315903657,우주피엔씨(주) 새광명주유소,02-2625-7674,A0008322
14,서울 구로구 경인로 650 (신도림동),t,GSC,t,2017,1947,37.50784117096816,126.88701749375235,대성산업(주)디큐브주유소,02-2633-7188,A0000850
15,서울 구로구 경인로 290 (개봉동),t,SKE,t,2104,2019,37.49763254021913,126.85223359897509,SK에너지(주)직영 개봉동주유소,02-2616-5189,A0000812
16,서울 구로구 가마산로 293 (구로동),t,HDO,t,2072,2068,37.49746687502616,126.89245270997607,현대오일뱅크(주)직영 신구로주유소,02-859-0051,A0000648
17,서울 금천구 서부샛길 674 (가산동),t,SOL,t,2075,1995,37.48196690472059,126.87506471550289,구광주유소,02-868-6889,A0016244
18,서울 구로구 개봉로 7,t,HDO,t,2097,2057,37.486109844448855,126.85606014597573,대원셀프주유소,02-2612-3880,A0000855
19,서울 영등포구 가마산로 328 (대림동),t,GSC,t,2027,1947,37.49857783622993,126.89562559298562,(주)대청에너지 대청주유소,02-841-8780,A0000444
20,서울 구로구 고척로 115 (개봉동),t,HDO,t,2129,2039,37.501826563330305,126.84681727551755,개봉주유소,02-2618-5145,A0032712
21,서울 양천구 목동동로10길 13,t,HDO,t,2059,2012,37.519547005196586,126.8712879463516,현대오일뱅크(주)직영 신목동셀프주유소,02-2642-5188,A0000991
22,서울 구로구 도림로 91 (구로동),t,SOL,t,2398,2398,37.49074434283804,126.89306434303374,동아주유소,02-855-1282,A0000350
23,서울 구로구 구로동로 20 (가리봉동),t,SOL,t,2149,2149,37.4835909813759,126.88689577094036,영진주유소,02-861-6625,A0000830
24,서울 영등포구 대림로 230,t,HDO,t,2027,1947,37.500524140677314,126.89756492873244,(주)MS에너지,02-844-5151,A0000400
25,서울 양천구 신정로 236 (신정동),t,GSC,t,2075,1975,37.51037588472153,126.84776362768633,지에스이앤알 직영 서울주유소,02-2607-9478,A0000011
26,서울 양천구 중앙로 226 (신정동),t,SKE,t,2074,1974,37.51688056502616,126.85467792224269,(주)타이거오일 신정주유소,02-2646-6212,A0001029
27,서울 영등포구 가마산로 367 (대림동),t,SKE,t,2067,1997,37.50148233500216,126.89886282653876,남서울고속주유소,02-843-5151,A0000412
28,서울 영등포구 가마산로 379,t,HDO,t,2027,1947,37.50221541242889,126.89950837868751,영등포제일셀프주유소,02-847-5151,A0000427
29,서울 영등포구 도림로 415,t,GSC,t,2049,2010,37.513204809310324,126.8964192807566,지에스칼텍스㈜ 화일주유소,02-2633-5546,A0000292
30,서울 영등포구 도림로 343 (도림동),t,RTO,t,2027,1947,37.50760376026014,126.90031388409176,도림주유소,02-835-8881,A0001034
31,경기 광명시 오리로 883,t,HDO,t,2098,2058,37.475953385652865,126.86432343420476,철산주유소,02-2616-1697,A0008422
32,서울 양천구 신정로 167 (신정동),t,HDO,t,2099,2039,37.50921471047806,126.84226200864211,(주)서부트럭터미날,02-2614-0047,A0000998
33,서울 영등포구 가마산로 414 (신길동),t,SOL,t,2027,1947,37.50375461142777,126.90291251732707,성락주유소,02-842-6148,A0000443
34,서울 구로구 경인로 161 (오류동),t,HDO,t,2073,2009,37.49424399207418,126.83956773499153,현대오일뱅크㈜직영 신오류주유소,02-2687-4186,A0000846
35,서울 영등포구 경인로 789,t,GSC,t,2027,1947,37.51455214954864,126.90079327921212,㈜지에스이앤알 모드니주유소,02-2637-7788,A0000261
36,경기 광명시 광명로 856 (광명동),t,SOL,t,2048,1958,37.475437002170004,126.85282169813475,광생주유소,02-2689-5512,A0008426
37,서울 영등포구 도신로 130 (신길동),t,SKE,t,2038,1947,37.50851562037649,126.90620235948977,행촌주유소,070-7758-5189,A0000408
38,서울 구로구 시흥대로 531,t,HDO,t,2089,2039,37.480941521612685,126.89922026170929, 현대오일뱅크㈜직영 구로셀프주유소,02-856-1135,A0000844
39,서울 구로구 시흥대로 539,t,HDO,t,2299,2299,37.48146041723738,126.89978931958119,JHC에너지,02-866-9553,A0000826
40,서울 양천구 신월로 193 (신월동),t,GSC,t,2078,1978,37.519983452932664,126.84402528805687,신월주유소,02-2603-5182,A0000992
41,서울 영등포구 신길로 74 (신길동),t,GSC,t,2065,1999,37.49888786712492,126.9086497037063,지에스칼텍스㈜ 신길주유소,02-833-1113,A0000410
42,서울 동작구 시흥대로 616 (신대방동),t,HDO,t,2089,2039,37.48711656489106,126.90547530177969,현대오일뱅크㈜직영 신대방셀프주유소,02-832-7926,A0000428
43,서울 영등포구 경인로 822 (영등포동),t,HDO,t,2027,1947,37.51513078204692,126.90414697430727,영등포현대셀프주유소,02-2678-0503,A0000310
44,서울 양천구 국회대로 275 (목동),t,RTO,t,2111,1955,37.5301767282689,126.86552696297804,양천구주유소,02-2644-5105,A0000948
45,서울 강서구 국회대로 251 (화곡동),t,RTO,t,2046,1945,37.5299197668527,126.86300848971327,목화주유소,02-2654-4564,A0000582
46,서울 영등포구 영등포로 168,t,HDO,t,2049,1979,37.52043408924946,126.90002774089841,현대오일뱅크㈜직영 대일셀프주유소,02-2068-8700,A0000290
47,서울 양천구 중앙로 331 (신월동),t,SKE,t,2074,2073,37.5253797528362,126.84965042976106,삼미상사(주)신월IC셀프주유소,02-2694-4966,A0000944
48,서울 강서구 국회대로 225 (화곡동),t,GSC,t,2056,2007,37.529558336438356,126.85975634915773,지에스칼텍스㈜ 경인고속주유소,02-2608-5151,A0000495
49,서울 영등포구 도신로 151,t,HDO,t,2027,1947,37.509985031424904,126.90822830156556,(주)강서오일,02-832-1700,A0000421
50,서울 양천구 국회대로 170 (신정동),t,SKE,t,2089,1999,37.52810170186862,126.85367795157136,SK에너지(주) 경인주유소,02-2693-4994,A0001024
51,서울 양천구 국회대로 158 (신정동),t,HDO,t,2145,2098,37.527985728072395,126.85244086461215,양정주유소,02-2691-5185,A0007701
52,서울 금천구 시흥대로 484,t,SKE,t,2129,2034,37.47678396808557,126.89903839690291,(주)화동유업 화동주유소,02-856-0283,A0001164
53,서울 양천구 목동서로 129 (목동),t,GSC,t,2075,2021,37.53210572140456,126.87549017653292,(주)삼표에너지 목동주유소,02-2654-5153,A0001027
54,서울 양천구 남부순환로 553 (신월동),t,HDO,t,2054,1989,37.51943590575925,126.83873445450344,현대오일뱅크(주)직영 남부순환셀프주유소,02-2690-5001,A0001023
55,서울 구로구 오리로 1299 (궁동),t,SOL,t,2049,1969,37.49737889122933,126.82906035457823,처음처럼주유소,02-2611-5051,A0000854
56,서울 강서구 곰달래로 207 (화곡동),t,RTO,t,2046,1945,37.53152258294619,126.85602691074536,뉴신정주유소,02-2601-0077,A0004657
57,서울 금천구 시흥대로 441,t,SKE,t,2139,2049,37.472940575218445,126.89792514613457,SK에너지(주) 이가주유소,02-861-2241,A0001139
58,서울 금천구 남부순환로 1410 (독산동),t,HDO,t,2089,2039,37.48014819206258,126.90744512457238,현대오일뱅크㈜직영 금천제일주유소,02-859-5426,A0001141
59,서울 강서구 국회대로 71,t,SOL,t,2097,1998,37.527264572341586,126.84287510356978,신화곡주유소,02-2611-3161,A0000500
60,경기 광명시 금오로 846 (옥길동),t,HDO,t,2055,1978,37.474440424974226,126.84017880642133,옥길주유소,02-2619-4144,A0006857
61,서울 영등포구 선유로 195 (양평동3가),t,SKE,t,2079,1999,37.5309625248049,126.89345320774397,SK에너지(주) 양평주유소,02-2633-1013,A0000309
62,경기 광명시 광명로 769 (광명동),t,HDO,t,2048,1958,37.468870950593704,126.84800006898226,하이웨이에너지,02-2066-5189,A0008429
63,서울 구로구 경인로 41 (온수동),t,SKE,t,2069,1999,37.49096700944075,126.8266546072292,서울석유(주)풀페이주유소,02-2613-7708,A0000856
64,서울 양천구 지양로 67,t,SKE,t,2164,2119,37.52138015456628,126.8338458758996,신양주유소,02-2608-3312,A0000974
65,,f,SOL,f,2157,2137,37.49290429279347,126.8239329011218,시몬주유소,,A0032710
66,서울 구로구 서해안로 2154 (항동),t,SOL,t,2049,1969,37.48343419039457,126.82766393698176,극동유화(주) 항동주유소,02-2611-1113,A0033149
67,서울 영등포구 여의대방로23길 2 (신길동),t,SKE,t,2067,1997,37.49828689756067,126.91975308114414,한경석유(주)경덕주유소,02-843-3900,A0000433
68,서울 영등포구 국회대로52길 9-13 (영등포동7가),t,GSC,t,2355,2345,37.525409585479785,126.90806054889097,성원이앤에스(주)영등포지점,02-2635-7781,A0000324
69,서울 금천구 독산로 257 (독산동),t,HDO,t,2135,2063,37.469718676822325,126.90242485990844,남서울경복에너지,02-855-9880,A0001055
70,서울 영등포구 영등포로 348 (신길동),t,SKE,t,2099,1999,37.51540853124078,126.91709059751287,SK에너지(주) 신길동주유소,02-843-0481,A0000431
71,서울 영등포구 도신로 248 (신길동),t,HDO,t,2038,1957,37.51318653280381,126.91828496673405,매봉주유소,02-836-8851,A0000370
72,서울 양천구 목동중앙로 125 (목동),t,SKE,t,2058,2007,37.53958222241946,126.87455256322647,목동주유소,02-2645-5104,A0000985
73,서울 영등포구 버드나루로 111 (당산동),t,SKE,t,2390,2430,37.52795683031103,126.90776326741559,버드나룻길주유소,02-2634-5104,A0000287
74,서울 관악구 문성로 97 (신림동),t,HDO,t,2069,1999,37.477672743859664,126.91438311676549,현대오일뱅크(주)직영 문성골주유소,02-839-0081,A0000771
75,서울 영등포구 선유로 260 (양평동4가),t,GSC,t,2075,1999,37.53546704536938,126.89790401043106,(주)한미석유 제2한강주유소,02-2633-2716,A0000323
76,경기 광명시 범안로 984 (하안동),t,HDO,t,2082,1988,37.4585809067551,126.87353780330395,현대오일뱅크 영진주유소,02-898-0051,A0006886
77,서울 동작구 여의대방로 214,t,GSC,t,2090,2017,37.50571506069808,126.92284023319674,지에스칼텍스(주) 대방주유소,02-826-5145,A0000371
78,서울 관악구 남부순환로 1515 (신림동),t,GSC,t,2199,2148,37.482852373065164,126.91884422087824,CJ대한통운㈜ 신림주유소,02-2632-8612,A0000655
79,경기 광명시 광명로 712 (광명동),t,RTO,t,2058,1968,37.46327488034667,126.84651173801913,광일알뜰주유소,02-2617-5151,A0008281
80,서울 영등포구 여의대방로 227,t,SOL,t,2085,2015,37.507185006334325,126.92287630151507,씨앤에스유통 한성주유소,02-849-5180,A0000442
81,서울 양천구 남부순환로 442 (신월동),t,SKE,t,2071,1974,37.52843500181027,126.832901490901,개나리Self주유소,02-2606-5189,A0001015
82,서울 영등포구 양평로 141 (양평동5가),t,SOL,t,2075,1999,37.5383784467619,126.89223106279228,선유도주유소,02-2671-5223,A0000279
83,서울 관악구 남부순환로 1520 (신림동),t,HDO,t,2079,2034,37.48232577038152,126.91939453629028,현대오일뱅크(주)직영 관악셀프주유소,02-867-1877,A0001129
84,서울 영등포구 선유로 270,t,SKE,t,2099,2019,37.536423797336205,126.89870098387962,SK에너지(주) 기린주유소,02-2671-5182,A0000327
85,경기 부천시 원미구 부일로 820 (역곡동),t,ETC,t,2040,1960,37.489939073314055,126.8192423172086,(주)역곡주유소,032-345-5002,A0005907
86,서울 영등포구 영등포로 399 (신길동),t,GSC,t,2037,1957,37.51337065253225,126.92267231899548,(주)지에스이앤알 보라주유소,02-842-1155,A0000346
87,"경기 광명시 범안로 925, (338-2) (하안동)",t,SKE,t,2149,2109,37.45592928892331,126.86782452108247,삼성주유소,02-898-4454,A0006829
88,경기 광명시 오리로 608 (소하동),t,GSC,t,2075,1995,37.45612428488721,126.88027537975664,(주)지에스이앤알 직영 하안단지주유소,02-899-5202,A0000004
89,서울 양천구 남부순환로 408,t,HDO,t,2066,1969,37.53100076771018,126.83123832371565,형산석유(주)원주유소,02-2690-5837,A0000983
90,서울 관악구 보라매로 41,t,HDO,t,2139,2119,37.49320525254312,126.92672448431078,(주)엠오티이엔지 직영 삼화주유소,02-889-8929,A0009284
91,경기 부천시 부일로 829,t,SOL,t,2060,0,37.490895622888885,126.81949727920559,역곡WASH주유소,032-346-2220,A0033411
92,서울 동작구 상도로 139 (상도동),t,SOL,t,2139,2099,37.50249552058544,126.93498725533652,매일주유소,02-817-4085,A0009553
93,서울 관악구  보라매로 26 (봉천동),t,SKE,t,2171,2137,37.49166091702065,126.92708996311566,대양석유(주)직영 보라매주유소,02-882-5189,A0001145
94,서울 동작구 상도로 334,t,SKE,t,2195,2175,37.498329454632724,126.95136361979692,살피재주유소,02-817-2559,A0000379
95,서울 관악구 신림로 290 (신림동),t,RTO,t,2077,2017,37.48033596633779,126.93058932283085,(주)연우에너지 신관주유소,02-871-1356,A0009272
96,서울특별시 관악구 남부순환로 1753 (봉천동),t,SOL,t,2238,2148,37.48219918145033,126.9450398555253,관악시몬주유소,02-874-5185,A0009536
97,서울 동작구 상도로 403 (상도동),t,HDO,t,2089,2029,37.4932440911162,126.95656031692224,현대오일뱅크(주)직영 동작주유소,02-817-9179,A0000425
98,서울 동작구 사당로 59 (상도동),t,HDO,t,2071,2011,37.494827265153894,126.96117113593574,창원이엔지주유소,02-825-5151,A0000368
99,서울 관악구 신림로 176 (신림동),t,SOL,t,2148,2088,37.47369050026474,126.93481169615481,유림주유소,02-887-5145,A0001152
100,서울 관악구 난곡로 206,t,GSC,t,2093,2075,37.47328189357764,126.91871045637068,지에스칼텍스㈜ 난곡주유소,02-858-2003,A0001119
101,서울 영등포구 국회대로 746 (여의도동),t,GSC,t,2584,2395,37.527932242453446,126.91599385669744,지에스칼텍스(주) 국회대로주유소,02-761-5122,A0000328
102,서울 영등포구 은행로 64,t,GSC,t,2584,2397,37.53036215999345,126.92542394198756,SJ오일(주) 여의도주유소,02-785-8201,A0000316
103,서울 동작구 현충로 101 (흑석동),t,HDO,t,2081,1999,37.50790928457127,126.96517088231695,현대오일뱅크㈜직영 흑석동셀프주유소,02-815-0724,A0000430
104,서울 영등포구 국회대로 794 (여의도동),t,SKE,t,2585,2398,37.53071254996769,126.92017373557786,KH여의도주유소,02-761-5101,A0000308
105,서울 관악구 남부순환로 1880 (봉천동),t,SKE,t,2099,2049,37.47875926198777,126.9584386837417,SK에너지(주) 신봉천,02-885-5189,A0001144
106,서울 관악구 남부순환로 1883 (봉천동),t,SKE,t,2149,2089,37.47908586912696,126.95904829042402,(주)한유에너지행운셀프주유소,02-871-5189,A0001149
107,서울 관악구 남부순환로 1920 (봉천동),t,GSC,t,2079,2019,37.47711650282674,126.96234240325265,서일석유(주)락성주유소,02-877-0867,A0001155
108,서울 관악구 난곡로 108 (신림동),t,HDO,t,2158,2140,37.46499692920979,126.9196182144792,현대주유소,02-851-9200,A0001089
109,서울 용산구 이촌로 164,t,SKE,t,2565,2365,37.521300591478116,126.96550903277006,한석주유소,02-790-1020,A0000221
110,서울 용산구 원효로 9 (청암동),t,HDO,t,2098,2117,37.534684372618194,126.94572767175505,현대오일뱅크㈜직영 강변현대주유소,02-712-7124,A0000230
111,서울 용산구 원효로 147 (원효로3가),t,SKE,t,2469,2470,37.53453957618947,126.95920737752364,(주)신태성주유소,02-701-9447,A0000245
112,서울 마포구 토정로 258,t,SOL,t,2189,2119,37.54297605062281,126.93879889850005,용강주유소,070-7795-4800,A0032673
113,서울 금천구 독산로 147 (시흥동),t,HDO,t,2052,2023,37.460366638597634,126.90456855253392,현대오일뱅크(주)직영 금천현대셀프주유소,02-891-5189,A0001132
114,서울 서초구 동작대로 206 (방배동),t,GSC,t,2088,2007,37.49493460966228,126.98314381794687,지에스칼텍스(주)선천주유소,02-592-4915,A0000890
115,서울 마포구 마포대로 69 (도화동),t,SKE,t,2179,2129,37.5419695622709,126.94869343645453,SK에너지 양지주유소,02-706-8955,A0000129
116,서울 서초구 동작대로 182 (방배동),t,HDO,t,2091,2029,37.49279321216758,126.98313835920342,현대오일뱅크(주)직영 방배현대주유소,02-534-0051,A0000917
117,서울 용산구 원효로 178 (원효로2가),t,GSC,t,2300,2400,37.53555470312035,126.96265461799673,(주)영원 풍기주유소,02-719-2202,A0000225
118,서울 동작구 동작대로 135 (사당동),t,GSC,t,2080,2014,37.48860646101559,126.98197691765523,지에스칼텍스㈜직영 남성주유소,02-532-0606,A0000411
119,서울 서초구 사평대로 94 (반포동),t,SKE,t,2090,2021,37.49834940831448,126.99476975283707,신반포주유소,02-533-5151,A0000863
120,서울 서초구 방배로 218 (방배동),t,GSC,t,2100,2071,37.49249416580453,126.99089147392306,한독주유소,02-3477-6127,A0000873
121,서울 서초구 사평대로 136 (반포동),t,HDO,t,2091,2022,37.500103138519215,126.99917363897084,현대오일뱅크(주)직영 팔레스주유소,02-720-0020,A0000919
122,서울 서초구 반포대로 284 (반포동),t,GSC,t,2099,2034,37.50456602054339,127.00170930430362,대성산업(주)직영 강남주유소,02-594-5987,A0000916
123,서울 동작구 동작대로 73 (사당동),t,HDO,t,2079,2019,37.483067157811796,126.98164781913515,현대오일뱅크(주)직영 사당셀프주유소,02-521-3618,A0000426
124,서울 서초구 신반포로 222 (반포동),t,GSC,t,2136,2057,37.506670895949874,127.00878456665743,대성산업(주)직영 터미널(고속)주유소,02-535-3001,A0000915
125,서울 서초구 반포대로 142 (서초동),t,SKE,t,2388,2368,37.49257749082451,127.00755708410621,대신석유㈜서원주유소,02-599-3657,A0009917
126,서울 서초구 서초중앙로 239 (반포동),t,GSC,t,2116,2034,37.50318753635375,127.01083465416103,반포그린주유소,02-532-5147,A0000866
127,서울 서초구 효령로 29 (방배동),t,SKE,t,2183,2161,37.47805511556835,126.98773819136532,방배동주유소,02-584-2086,A0000894
128,서울 용산구 녹사평대로11길 24,t,SKE,t,2599,2542,37.52242213214002,126.99922060064489,(주)남경주유소,02-793-2954,A0000206
129,서울 서초구 반포대로 64 (서초동),t,GSC,t,2148,2116,37.48607383814932,127.01077835982608,(주)한미석유 서초주유소,02-582-5198,A0009912
130,서울 관악구 과천대로 921 (남현동),t,SKE,t,2089,2029,37.47294527062013,126.98216701505847,SK에너지(주)직영 대공원주유소,02-584-2522,A0001157
131,서울 서초구 사평대로 350 (서초동),t,HDO,t,2079,2014,37.50321531121383,127.02147286867084,현대오일뱅크㈜직영 사평로주유소,02-3481-2513,A0009905
132,서울 서초구 남부순환로 2391 (서초동),t,SOL,t,2148,2116,37.48032872175802,127.01200124633662,극동유화(주) 전당앞주유소,02-6080-0516,A0009906
133,서울 서초구 사평대로 364 (서초동),t,GSC,t,2116,2034,37.503798585573115,127.02313942998046,에너지플러스허브 삼방주유소,02-536-5145,A0009907
134,서울 서초구 나루터로 83 (잠원동),t,GSC,t,2101,2141,37.516110024654175,127.01891532853632,지에스칼텍스(주)남서울주유소,02-542-1517,A0000908
135,서울 서초구 사임당로 116 (서초동),t,HDO,t,2091,2034,37.490498735816736,127.02257364914873,현대오일뱅크(주)직영 서초제일주유소,02-587-6080,A0009913
136,서울 서초구 남부순환로 2451,t,GSC,t,2158,2126,37.482518390397495,127.0184869254801,대성석유(주)연일주유소,02-3471-5151,A0009901
137,서울 강남구 강남대로 640 (신사동),t,SKE,t,2100,2070,37.51882148396626,127.01924345505974,대교주유소,02-512-5521,A0009705
138,서울특별시 서초구  효령로 356 (서초동),t,SOL,t,1979,1959,37.486613921632454,127.02275907235752,에쓰오일(주)직영 오토테크주유소,02-585-5189,A0009861
139,서울 서초구 과천대로 838 (방배동),t,SKE,t,2095,2055,37.46683271943037,126.98778859919658,(주)대농석유 남태령주유소,02-587-0895,A0000928
140,서울 용산구 한남대로 45 (한남동),t,GSC,t,2478,2448,37.53265624179407,127.00754762526476,제3한강주유소,02-749-3180,A0000202
141,서울 용산구 한남대로21길 4 (한남동),t,SKE,t,2566,2537,37.534707197299674,127.00606085433667,한남지점,070-8707-4586,A0000238
142,서울 강남구 도산대로 163 (신사동),t,HDO,t,2126,2125,37.51946585714301,127.02629489859987,현대오일뱅크(주)직영 신사현대주유소,02-546-2182,A0009725
143,서울 용산구 한남대로 82 (한남동),t,SKE,t,2566,2537,37.53596892392951,127.0060894049858,에너비스,070-8707-4572,A0000228
144,서울 강남구 논현로 747 (논현동),t,SKE,t,2512,2541,37.51857487891416,127.02819466504324,SK논현주유소,02-511-0955,A0009710
145,서울 강남구 논현로 640,t,SKE,t,2217,2187,37.510676626351355,127.03269851077799,(유)동하석유 힐탑셀프주유소,02-544-4075,A0006039
146,서울 강남구 역삼로 142,t,SKE,t,2145,2135,37.49428201295224,127.03505825156459,SK서광주유소,02-562-4855,A0010207
147,서울 강남구 논현로 516 (역삼동),t,GSC,t,2128,2121,37.50264107242193,127.03635745585956,지에스칼텍스㈜에너지플러스허브GS타워,02-539-5145,A0009974
148,서울 강남구 압구정로 154,t,HDO,t,2389,2398,37.52587970101344,127.02636144733854,㈜새서울석유 새서울주유소,02-543-1154,A0009715
149,서울 강남구 도곡로 162 (도곡동),t,SOL,t,2189,2149,37.491138840310846,127.03746435080517,(주)선진도곡주유소,02-2058-3024,A0009061
150,서울 강남구 언주로 716,t,HDO,t,2537,2368,37.51760875355915,127.03571229962549,제이제이주유소,02-518-5631,A0009707
151,서울 강남구 언주로 423 (역삼동),t,SOL,t,2119,2079,37.50086189751939,127.04308532254724,에쓰-오일㈜직영 개나리주유소,02-564-0187,A0010269
152,서울 강남구 언주로 307,t,SKE,t,2199,2169,37.49491058938083,127.04594353949686,SK에너지(주) 매봉주유소,02-556-5510,A0010235
153,서울 강남구 도곡로 249 (역삼동),t,SOL,t,2392,2399,37.494036554465644,127.0455918340906,명품주유소,02-501-1256,A0010232
154,서울 강남구 도곡로 208,t,SKE,t,2169,2129,37.4922679129001,127.04198724849226,SK에너지㈜ 진달래주유소,02-3462-0018,A0010236
155,서울 강남구 봉은사로 433 (삼성동),t,GSC,t,2590,2598,37.51146052011237,127.04713789602944,(주)만정에너지 삼보주유소,02-518-5141,A0000525
156,서울 강남구 삼성로 563 (삼성동),t,GSC,t,2274,2325,37.51179274697891,127.05348920346407,지에스칼텍스㈜ 삼성로주유소,02-538-5138,A0001199
157,서울 강남구 삼성로 335,t,GSC,t,2455,2535,37.50135973123478,127.05910541996494,(주)소모에너지 쎈트럴주유소,02-565-0267,A0001217
158,서울 강남구 남부순환로 2651 (도곡동),t,SKE,t,2095,2077,37.48577539771386,127.03965095855159,오일프러스 셀프,02-3462-5100,A0009835
159,서울 강남구  남부순환로 2718 (도곡2동),t,HDO,t,2070,2062,37.485400289489924,127.04318036033607,현대오일뱅크 도곡셀프주유소,02-529-5101,A0009738
160,서울 서초구 남부순환로 2650 (양재동),t,GSC,t,2136,2116,37.48513379385306,127.04080497553558,말죽거리주유소,02-579-9933,A0009869
161,서울 강남구 논현로 152 (도곡동),t,HDO,t,2085,2077,37.483189544734785,127.04263819252783,현대오일뱅크(주) 유진주유소,02-3462-5215,A0010229
162,서울특별시 서초구  바우뫼로 219 (양재1동),t,SOL,t,2458,2489,37.48147252774169,127.04217877584013,(주)선문에너지 중앙주유소,02-575-5110,A0009886
163,서울 강남구 테헤란로 619 (삼성동),t,HDO,t,2391,2258,37.50979798306069,127.06508121434537,삼성동주유소,02-508-6572,A0001214
164,서울 강남구 영동대로 235,t,GSC,t,2214,2239,37.50000949783484,127.06725076704788,지에스칼텍스㈜ 은마주유소,02-3452-1882,A0001185
165,서울 서초구 바우뫼로 178,t,SKE,t,2085,2077,37.47802339688914,127.0394995028647,양재주유소,02-577-1621,A0011828
166,서울 강남구 언주로 842 (신사동),t,SKE,t,2227,2197,37.52527945369387,127.03381940189232,대동석유 압구정주유소,02-545-6161,A0009712
167,서울 강남구 압구정로 426,t,SKE,t,2533,2574,37.526712950517016,127.04347147441007,갤러리아주유소,02-540-4965,A0001171
168,서울 강남구 봉은사로113길 51,t,GSC,t,2392,2321,37.51843370174349,127.0646271015958,대성석유(주)동호주유소,02-545-0720,A0001225
169,서울 서초구 마방로 6,t,HDO,t,2085,2077,37.47352171586505,127.03970381783458,현대오일뱅크㈜직영 양재현대주유소,02-579-8429,A0009919
170,서울 강남구 압구정로 302 (신사동),t,HDO,t,2186,2219,37.52882063598618,127.0340397125674,현대오일뱅크(주)직영 한양주유소,02-3444-0804,A0009724
171,서울 송파구 도곡로 438 (잠실동),t,GSC,t,2115,2041,37.504534393262674,127.07733456873235,(주)삼표에너지 아시아주유소,02-416-1911,A0010172
172,서울 강남구 남부순환로 3170 (일원2동),t,GSC,t,2372,2411,37.4983574552495,127.0774386741982,지에스칼텍스(주)학여울주유소,02-459-8829,A0001202
173,서울 강남구 양재대로 339,t,GSC,t,2198,2108,37.4723131651156,127.05170178118901,에스제이에너지산업(주) 개포주유소,02-573-9031,A0001224
174,서울 송파구 백제고분로 125,t,GSC,t,2095,2031,37.50657608375585,127.08096909651579,삼화주유소,02-2203-2280,A0010167
175,서울 서초구 태봉로 117 (우면동),t,SKE,t,2117,2067,37.46827437620289,127.02816688838234,태봉셀프주유소,02-571-8000,A0011816
176,서울 서초구 매헌로 72 (양재동),t,SOL,t,2435,2495,37.467093446504784,127.03466318910006,양재최고주유소,02-2057-5189,A0009881
177,서울 강남구 개포로 654 (일원동),t,SKE,t,2499,2466,37.49488972026952,127.08423506866434,대청주유소,02-445-5500,A0010177
178,서울 송파구 백제고분로 199,t,SKE,t,2115,2046,37.50419465196602,127.08897538317842,삼전셀프주유소,02-420-5101,A0009987
179,서울 강남구 양재대로55길 3 (일원동),t,SOL,t,2130,2097,37.49099431599271,127.08777421966522,일원주유소,02-2226-5188,A0009837
180,서울 서초구 양재대로 173 (양재동),t,SKE,t,2167,2119,37.462636012311016,127.0376940956244,대신석유(주)대우주유소,02-572-0567,A0009916
181,서울 성동구 뚝섬로 352 (성수동1가),t,SKE,t,2179,2149,37.53993384417402,127.04980440555,SK에너지(주) 성수주유소,02-467-7240,A0009349
182,서울 서초구 양재대로12길 73-71,t,RTX,t,1999,1973,37.45955056769756,127.04300906940396,만남의광장주유소,02-573-7430,A0011826
183,서울 성동구 아차산로 180,t,GSC,t,2083,2055,37.54190719481857,127.06357639875563,지에스칼텍스㈜ 도루코주유소,02-463-6919,A0009324
184,서울 송파구 삼학사로 22 (석촌동),t,SKE,t,2115,2031,37.49924907786419,127.09701974745109,한강에너지(주)퍼스트주유소,02-422-2834,A0010048
185,서울 송파구 삼학사로 50 (석촌동),t,HDO,t,2115,2030,37.50159152559356,127.09710624546526,지에스이앤알 직영 송파제일주유소,02-424-2900,A0000015
186,서울 양천구 공항대로 648 (목동),t,HDO,t,2054,2009,37.54666971725414,126.87694445798947,현대오일뱅크㈜직영 목동셀프주유소,02-2648-4204,A0000961
187,서울 강서구 양천로 720 (염창동),t,SKE,t,2520,2499,37.54903043334965,126.87580228633793,염창동주유소,02-3664-4134,A0000161
188,서울 강서구 공항대로 653,t,HDO,t,2054,2009,37.54743309265299,126.87731534227417,현대오일뱅크 양화교주유소,02-3665-2004,A0000546
189,서울 강서구 등촌로 189 (등촌동),t,HDO,t,2086,2016,37.54674683256928,126.86251549269323,현대오일뱅크 등촌주유소,02-2647-5700,A0000501
190,서울 강서구 등촌로 213 (등촌동),t,GSC,t,2098,2038,37.54865331220078,126.86302415111018,강서열린주유소,02-2647-9091,A0000474
191,서울 양천구 안양천로 1179 (목동),t,HDO,t,2045,2001,37.54598879363466,126.88128731326205,현대오일뱅크(주)직영 양천현대셀프주유소,02-2653-5189,A0001025
192,서울 양천구 안양천로 1171 (목동),t,GSC,t,2075,2021,37.545336446025736,126.88208360726843,지에스칼텍스㈜ 건지주유소,02-2644-5108,A0000990
193,서울 강서구 양천로 576,t,SKE,t,2188,2128,37.55668129503259,126.86270546770574,코리나(주)청룡주유소,02-3661-1575,A0000534
194,서울특별시 강서구 공항대로 432(화곡동),t,SOL,t,2078,1998,37.5546823653277,126.8548445447614,하이웨이주유소,02-2605-4000,A0000520
195,서울 강서구 화곡로 273 (화곡동),t,HDO,t,2046,1945,37.54904404235558,126.84701170826213,이케이에너지(주) 강서주유소,02-2699-5219,A0000549
196,서울 강서구 강서로 154 (화곡동),t,RTO,t,2046,1945,37.54049673254076,126.84162085210575,화곡역주유소,02-2691-5151,A0000519
197,서울 강서구 강서로 151 (화곡동),t,SKE,t,2123,2033,37.540029044184735,126.84116112970358,화곡현대주유소,02-2607-1942,A0000526
198,서울 강서구 공항대로 314,t,GSC,t,2138,2076,37.55766461592012,126.84248487100322,대성석유(주) 관문주유소,02-3665-2051,A0000544
199,서울 강서구 양천로53길 97 (가양동),t,GSC,t,2158,2098,37.567438179814076,126.85032916933272,박물관주유소,02-3665-5189,A0000482
200,서울 강서구 강서로 292 (내발산동),t,SKE,t,2135,2075,37.551682666608755,126.83656792546657,우장산주유소,02-3664-7163,A0000530
201,서울 강서구  양천로 391 (가양동),t,HDO,t,2079,2039,37.56632008541655,126.8460950996168,현대오일뱅크(주) 가양주유소,02-3661-9470,A0000547
202,서울 양천구 가로공원로 165 (신월동),t,SKE,t,2056,1955,37.53696848326582,126.83422955808469,가로공원주유소,02-2695-3423,A0000981
203,서울 강서구 강서로 457,t,GSC,t,2118,2066,37.56625511629009,126.84035936408031,대성석유(주) 마곡대성주유소,02-3664-7781,A0033194
204,서울 마포구 월드컵로 119 (망원동),t,SKE,t,2118,2078,37.55873751257814,126.90725788851697,(주)안국에너지 망원동주유소,02-334-0917,A0000164
205,서울 강서구 강서로 472,t,GSC,t,2138,2086,37.567432472873335,126.84143407046406,대성주유소,02-3661-6102,A0000468
206,서울 마포구 양화로 33,t,SKE,t,2139,2119,37.54926624212379,126.91253533209617,SK에너지(주) 안국주유소,02-3144-1197,A0000115
207,서울 강서구 강서로 498 (가양동),t,SKE,t,2138,2086,37.56973640861199,126.84181759305847,KH에너지(주)직영 가양주유소,02-3664-6051,A0000550
208,서울 양천구 남부순환로 372 (신월동),t,SOL,t,2046,1945,37.533684474371746,126.82937393709223,현대주유소,02-2608-9231,A0001005
209,경기 고양시 덕양구 자유로 38 (덕은동),t,GSC,t,2398,2390,37.57904102964979,126.85976089993503,GS칼텍스 상암주유소,02-3158-0030,A0005110
210,서울 양천구 남부순환로 317,t,GSC,t,2066,2017,37.538589808599056,126.82679280206128,지에스칼텍스㈜ 서호주유소,02-2602-5172,A0000978
211,서울 강서구 양천로 311 (가양동),t,SKE,t,2128,2076,37.57043078365463,126.83806783106822,세원제1주유소,02-3663-5151,A0000508
212,서울 마포구 성산로 144,t,HDO,t,2098,2058,37.56443249359651,126.90940617469768,성산대교셀프주유소,02-323-0078,A0000169
213,서울 마포구 월드컵북로 170 (성산제2동),t,SKE,t,2127,2087,37.56744941791058,126.90965571488597,성산주유소,02-373-3314,A0000139
214,서울 마포구 월드컵북로 113 (성산동),t,HDO,t,2127,2078,37.56313021351199,126.91322753815153,청원주유소,02-325-5533,A0000159
215,경기 고양시 덕양구 자유로 94,t,GSC,t,2067,1997,37.58205387736121,126.85421365353528,제1자유로주유소,02-3158-0707,A0005355
216,경기 부천시 오정구 봉오대로 560,t,SKE,t,2099,2035,37.5388938971374,126.82157597988268,한도석유(주) 한도주유소,032-673-8128,A0006038
217,서울 마포구 월드컵북로62 (성산동),t,GSC,t,2117,2087,37.55964302355575,126.91714915717716,마포시엠주유소,02-336-1687,A0000146
218,서울 은평구 수색로 188 (증산동),t,SKE,t,2064,1994,37.57834665415677,126.90195266989222,타이거주유소,02-309-9145,A0000571
219,서울 은평구 수색로 236 (수색동),t,HDO,t,2065,1995,37.58106860301806,126.89759183590633,(주)명연에너지 수색훼미리주유소,02-374-8770,A0000707
220,서울 강서구 방화대로 30,t,SKE,t,2085,1995,37.54312290510481,126.81678252435826,KH에너지(주)직영 KH외발산주유소,032-677-9497,A0033328
221,서울 은평구 수색로 350 (수색동),t,GSC,t,2082,2010,37.58706800044132,126.88745358910106,지에스칼텍스(주)수색뉴타운주유소,02-309-5051,A0000690
222,경기 부천시 오정구 역곡로 560 (고강동),t,SKE,t,2048,1969,37.53490445015221,126.81656049457347,(주)광역주유소 고강,032-678-6446,A0000471
223,서울 서대문구 성산로 255,t,SKE,t,2094,2054,37.56751440843334,126.91881271202321,삼미상사(주)서부주유소,02-334-4919,A0000746
224,서울 강서구 하늘길 259,t,SOL,t,2099,1999,37.55091206991167,126.81465734649527,(주)한진 김포공항주유소,02-2662-0422,A0009060
225,경기 부천시 오정구 봉오대로 494 (고강동),t,SOL,t,2087,1975,37.53688147533302,126.81497961606567,수현주유소,032-683-8006,A0006022
226,서울 마포구 서강로 76 (창전동),t,HDO,t,2149,2099,37.54985425797914,126.93264244064324,에스에스오토셀프,02-336-5185,A0000173
227,서울 마포구 대흥로 61 (대흥동),t,SKE,t,2059,1999,37.54606364522596,126.94005622106373,(주)만성상사 대흥주유소,02-3273-5151,A0000163
228,서울 마포구 백범로 126 (염리동),t,SOL,t,1989,1939,37.54627816786346,126.94481928546115,에스오일(주) 염리동주유소,02-3272-5155,A0000182
229,서울 서대문구 연희로 12 (창천동),t,SKE,t,2077,2037,37.55973741200251,126.92678442905807,중앙에너비스 동교지점,070-8707-4568,A0000747
230,서울 서대문구 성산로 490 (대신동),t,SKE,t,2077,2037,37.56095516070149,126.94149604124256,행촌제2주유소,02-365-5189,A0000627
231,서울 서대문구 연희로 78 (연희동),t,SKE,t,2078,2038,37.56495910994838,126.92978423867845,(주)안국에너지 삼보셀프주유소,02-336-6151,A0000744
232,서울 서대문구 성산로 312,t,SOL,t,2068,2028,37.56602973667128,126.92485618066753,구도일주유소 두꺼비,02-336-0611,A0000134
233,서울 마포구 마포대로 186 (공덕동),t,SOL,t,2399,2299,37.55079386577475,126.95572703759217,마포주유소,02-701-3990,A0000120
234,서울 서대문구 연희로 129 (연희동 89-7번지),t,SKE,t,2128,2058,37.56918090808064,126.9325062879236,연희주유소,02-338-8045,A0000591
235,서울 서대문구 모래내로 205,t,HDO,t,2073,2033,37.57317607967679,126.92242468137526,(주)가재울뉴타운주유소,070-8879-7864,A0000623
236,서울 서대문구 연희로 184,t,HDO,t,2068,2029,37.5734000554358,126.93588567215552,현대오일뱅크(주)직영 연세주유소,02-337-8220,A0000716
237,서울 서대문구 모래내로 243 (남가좌동),t,GSC,t,2078,2038,37.575652479947834,126.92567338770134,남정주유소,02-305-9828,A0000737
238,서울특별시 용산구  한강대로 322 (남영동),t,HDO,t,2149,2177,37.54701646723025,126.97211488785149,현대오일뱅크(주)갈월동주유소,02-754-5217,A0000232
239,서울 서대문구 연희로 266 (홍은동),t,SKE,t,2128,2058,37.58059642807006,126.936339379274,광호주유소,02-395-7236,A0000568
240,서울 용산구 한강대로104길 6 (동자동),t,SKE,t,2180,2180,37.55015504075723,126.97228154327405,동자동주유소,02-754-6667,A0000223
241,서울 서대문구 가좌로 106(홍은동),t,SOL,t,2069,2028,37.58225352016079,126.92638966344923,(주)미래아스팔트 신우주유소,02-304-5522,A0000178
242,서울 중구 통일로 30,t,SKE,t,2950,2827,37.5582653366908,126.97203155949751,서남주유소,02-752-9475,A0000767
243,서울 용산구 소월로 66 (후암동),t,HDO,t,2150,2169,37.55429351344205,126.97767009071465,현대오일뱅크(주)직영 소월길주유소,02-318-3314,A0000240
244,서울 서대문구 통일로 372,t,GSC,t,2075,2029,37.58348452811795,126.95009248478088,지에스칼텍스(주)홍제동주유소,02-736-3708,A0001193
245,서울 은평구 응암로 163,t,SKE,t,2087,2037,37.586681026716576,126.91593174548791,제이제이에너지,02-303-1448,A0005900
246,서울 서대문구 통일로 384 (홍제동),t,HDO,t,2068,2017,37.58417940092925,126.94942188305158,현대오일뱅크㈜직영 독립문주유소,02-735-0333,A0000669
247,서울 종로구 사직로 65 (사직동),t,GSC,t,2565,2535,37.5744570934242,126.96658927531355,(주)대양씨앤씨 사직주유소,02-735-4858,A0010027
248,서울 용산구 한남대로 204 (한남동),t,HDO,t,2108,2156,37.54598879207369,127.0028351618952,현대오일뱅크㈜직영 한남동주유소,02-795-0802,A0000229
249,서울 중구 퇴계로 196 (필동2가),t,GSC,t,2699,2599,37.5608761859525,126.99364130126938,필동주유소,02-2267-8025,A0009047
250,서울 중구 퇴계로 228 (필동2가),t,SKE,t,2210,2140,37.56165388535528,126.99711330233467,SK에너지(주) 퇴계로주유소,02-2273-5189,A0009100
251,서울 중구 동호로 296,t,SOL,t,2095,2065,37.56059843524823,127.00308514589362,장충드림주유소,02-2275-5150,A0009073
252,서울 중구 동호로 203 (신당동),t,HDO,t,2078,2047,37.55615443792858,127.00902921381095,현대오일뱅크 장원주유소,02-2236-2759,A0009071
253,서울 성동구 독서당로 168 (옥수동),t,GSC,t,2489,2448,37.54087569460108,127.01136462288046,(주)옥수하이웨이스테이션,02-2282-5151,A0009392
254,서울 중구 장충단로 202 (장충동1가),t,SKE,t,2398,2368,37.56268156003978,127.00702934077486,장충주유소,02-2279-9965,A0009101
255,서울 중구 다산로 173,t,GSC,t,2636,2578,37.55900111217059,127.01278486449813,약수주유소,02-2252-3345,A0009097
256,서울 종로구 율곡로 6 (중학동),t,GSC,t,2560,2530,37.575474515282714,126.98071414300246,경복궁주유소,02-6016-6981,A0000047
257,서울 중구 다산로 233,t,SOL,t,2049,2019,37.56386004263162,127.01564219958072,다산주유소,02-2252-2210,A0006093
258,서울 중구 다산로 242 (신당동),t,SKE,t,2448,2398,37.564543773700805,127.01638510374345,신당동주유소,02-2252-6688,A0009096
259,서울 성동구 금호로 39 (금호동4가),t,GSC,t,2364,2334,37.54718311620037,127.0251948552049,금호주유소,02-2297-0066,A0009279
260,서울 중구 왕십리로 403,t,RTO,t,2198,2138,37.56487173579592,127.02548577104442,세화주유소,02-2234-3451,A0009076
261,서울 성동구 청계천로 454 (하왕십리동),t,SKE,t,2447,2398,37.570021278789966,127.02728050063085,청계로주유소,02-2294-4225,A0009285
262,서울 종로구 창경궁로35길 1,t,SKE,t,2566,2537,37.58601254928078,127.00102972114196,(주)중앙에너비스 혜화주유소,070-8707-4564,A0009433
263,서울 성북구 보문로 27 (보문동7가),t,GSC,t,2039,1989,37.57787435291405,127.02269511645785,이케이에너지㈜ 강산주유소,02-953-1448,A0001257
264,서울 성동구 왕십리로 109,t,SKE,t,2158,2098,37.54744959674026,127.0443655386034,kh에너지(주)성수만세주유소,02-499-8223,A0002243
265,서울 성동구 광나루로 184 (성수동1가),t,SKE,t,2273,2250,37.550932739142304,127.05041547914277,SK세원2주유소,02-462-5665,A0009260
266,서울 성동구 광나루로 254 (성수동2가),t,HDO,t,2439,2398,37.548548017040325,127.05804744448547,동일주유소,02-461-7100,A0010154
267,서울 성동구 고산자로 273 (도선동),t,SOL,t,2058,2028,37.56403632214307,127.03601185139078,아이콘주유소,02-2291-5189,A0006095
268,서울 성동구 동일로 129,t,HDO,t,2077,1998,37.54401676704314,127.06469235130207,현대오일뱅크㈜직영 효진주유소,02-464-7252,A0009354
269,서울 성동구 마장로 311 (마장동),t,HDO,t,2060,2040,37.56689704014588,127.04383588006425,현대오일뱅크(주) 성동셀프주유소,02-2299-7333,A0009376
270,서울 성동구 고산자로 307 (마장동),t,ETC,t,2025,1995,37.56718443225957,127.03661233815683,정호주유소,02-2297-9442,A0009332
271,서울 성동구 천호대로 324 (용답동),t,SOL,t,2067,1997,37.56422197910809,127.05559168246931,(주)서울에너지 직영,02-3390-4338,A0009361
272,서울 성동구 천호대로 392,t,SKE,t,2158,2128,37.561403909996415,127.06235916551775,삼우주유소,02-2245-8974,A0009293
273,서울 성동구 동일로 249 (송정동),t,HDO,t,2097,1997,37.55397207643614,127.07047564400021,KLP제2주유소,02-465-5182,A0009394
274,서울 광진구 동일로 266 (군자동),t,SKE,t,2097,2057,37.55499948873078,127.07148958640317,(주)장수주유소,02-498-1981,A0006665
275,서울 성동구 천호대로 446 (용답동),t,SKE,t,2119,2079,37.56051510979219,127.06833100905585,SK에너지(주) 군자동주유소,02-2244-4945,A0009359
276,서울 동대문구 천호대로 453 (장안동),t,HDO,t,2078,2019,37.561015059744456,127.06924761840422,현대오일뱅크㈜직영 스피드주유소,02-2216-5151,A0009195
277,서울 동대문구  한천로 81 (답십리동),t,SOL,t,2098,2068,37.56884756528316,127.06327580903596,오동나무주유소,02-2247-5132,A0009233
278,서울 동대문구 고산자로 405 (용두동),t,GSC,t,2035,2005,37.575750832859626,127.03771461256555,대성산업(주)동마장주유소,02-966-5451,A0009210
279,서울 광진구 아차산로 298 (자양동),t,SKE,t,2148,2077,37.53801737023435,127.07588608618666,자양주유소,02-457-7600,A0009413
280,서울 동대문구  한천로 100 (장안동),t,SKE,t,2067,2027,37.56999452340346,127.06486713010257,삼미상사(주)장안킹셀프주유소,02-2242-7115,A0009215
281,서울 광진구 동일로 345 (중곡동),t,HDO,t,2097,2027,37.56178248418394,127.07476074593889,태양주유소,02-464-5141,A0009330
282,서울 동대문구 사가정로 90 (전농동),t,HDO,t,2035,1999,37.57579758806947,127.05556551986433,재정제2주유소,02-2249-6682,A0009231
283,서울 광진구 광나루로 460 (화양동),t,HDO,t,2057,1977,37.54507221712193,127.08066356100814,(주)창원CW,02-3436-1112,A0009357
284,서울 동대문구 전농로 121 (전농동),t,HDO,t,2035,2015,37.575620725162295,127.05737013051679,재정주유소,070-8256-4617,A0009173
285,서울 동대문구 답십리로 223 (답십리동),t,HDO,t,2029,1979,37.57291510361949,127.06501183044453,(주)자연에너지 국민주유소,02-2216-7155,A0009232
286,서울 동대문구 답십리로 258 (장안동),t,SKE,t,2027,1977,37.572251848396306,127.06877296423093,삼영주유소,02-2217-2017,A0009248
287,서울 동대문구 서울시립대로 108,t,HDO,t,2030,2020,37.57993421773724,127.05096083509032,배봉로주유소,02-2242-0556,A0009143
288,서울 광진구 천호대로 584 (능동),t,HDO,t,2057,1977,37.55549762403724,127.08241735256505,현대오일뱅크(주)직영 능동주유소,02-452-7723,A0009765
289,서울 광진구 동일로 398 (중곡동),t,HDO,t,2067,1987,37.56559793238636,127.07752487145603,현대오일뱅크(주) 중원셀프주유소,02-467-2410,A0009421
290,서울 광진구 동일로 413 (중곡동),t,SOL,t,2057,1977,37.56742113687702,127.07796264667228,정해네트웍스(주)일진주유소,02-461-5152,A0004458
291,서울 광진구 동일로 435 (중곡동),t,HDO,t,2067,1987,37.56928531950231,127.07897724470607,현대오일뱅크(주)직영 중곡현대주유소,02-497-5151,A0009351
292,서울 광진구 자양로37 (자양동),t,HDO,t,2050,2034,37.531295822655224,127.08580212322524,현대오일뱅크㈜직영 장호셀프주유소,02-447-9796,A0009358
293,서울 성북구 안암로 111 (안암동5가),t,SOL,t,2099,2069,37.58542455739094,127.03174779885641,신방주유소,02-922-5151,A0009463
294,서울특별시 성북구  보문로 85 (보문동5가),t,SOL,t,2078,2028,37.58292474111301,127.02033086572997,동일주유소,02-923-8484,A0009466
295,서울 광진구 용마산로 68 (중곡동),t,GSC,t,2067,1996,37.559681860643295,127.08782977311411,용마주유소,02-456-1884,A0009333
296,서울 동대문구 왕산로 289 (청량리동),t,GSC,t,2035,2005,37.586351333546965,127.05160761747247,대성산업㈜청량리주유소,02-966-9400,A0009211
297,서울 광진구 용마산로 122 (중곡동),t,SOL,t,2067,1996,37.56448693281808,127.08691316459596,대원주유소,02-444-1666,A0009411
298,서울 동대문구 홍릉로 87 (청량리동),t,SOL,t,2105,2065,37.587845697940615,127.04263819490318,홍능주유소,02-966-9190,A0009177
299,서울 광진구 강변역로 10 (구의동),t,GSC,t,2089,2039,37.5377439754877,127.09128375682377,동서울주유소,02-444-3910,A0002720
300,서울 동대문구 안암로 168,t,SKE,t,2035,2005,37.589171193530696,127.03594563941292,풍한주유소,02-924-5189,A0009172
301,서울 동대문구 한천로 263 (휘경동),t,SOL,t,2027,1977,37.584270940212036,127.06761022693837,열린주유소,02-2215-6543,A0009229
302,서울 동대문구 망우로 38 (휘경동),t,HDO,t,2149,2335,37.58833722793487,127.0573528165037,한영주유소 (한화),02-2214-9890,A0009240
303,서울 성북구 보문로 142,t,HDO,t,2039,1999,37.587514039912804,127.01841155271894,(주)성북주유소,02-928-4900,A0009500
304,서울 중랑구 동일로 547 (면목동),t,SOL,t,2029,1979,37.579028103901024,127.07929174149923,오천만주유소,070-7797-7474,A0032696
305,경기 고양시 덕양구 제2자유로 154 (현천동),t,GSC,t,2067,1997,37.59245381044403,126.87247969357827,제2자유로주유소,02-3159-7707,A0005547
306,경기 고양시 덕양구 중앙로 113 (화전동),t,SKE,t,2045,1965,37.59864156880028,126.87385721098035,중앙로주유소,02-3158-2228,A0005300
307,경기도 고양시 덕양구  중앙로 110 (화전동),t,GSC,t,2045,1965,37.598524926573035,126.8748555351397,(주)삼표에너지 동해주유소,02-3159-9774,A0005533
308,경기 고양시 덕양구  중앙로 171 (화전동),t,GSC,t,2045,1965,37.60296263330228,126.86976151367544,항공대주유소,02-3158-0900,A0005288
309,경기 고양시 덕양구 중앙로 209 (화전동),t,SOL,t,2065,1965,37.60527797280573,126.86700049092228,처음주유소,02-305-3800,A0005115
310,경기 고양시 덕양구 화랑로 124 (화전동),t,HDO,t,2065,1995,37.608799457233346,126.86987259041325,(주)헨지스에너지직영 세이버주유소,02-3158-0014,A0009164
311,경기 고양시 덕양구 중앙로 316 (도내동),t,SKE,t,2045,1965,37.6119085077267,126.85803995125659,정상에너지(주)강매self주유소,031-972-1555,A0005604
312,경기 고양시 덕양구 중앙로 394(행신동),t,SKE,t,2198,2198,37.6162771258423,126.85067658333843,행신주유소,031-973-2200,A0005296
313,서울 은평구 증산로 423 (신사동),t,GSC,t,2075,2020,37.59407307125774,126.91399406681033,지에스칼텍스㈜ 신사제일주유소,02-308-4333,A0000629
314,서울 은평구 증산로 441 (신사동),t,SOL,t,2074,2019,37.59556249308764,126.9144355256772,다회주유소,02-375-5156,A0000619
315,경기 고양시 덕양구 행주로 57-28,t,RTO,t,2045,1965,37.60184557844612,126.82714144852586,한강주유소,031-972-9125,A0006413
316,서울 은평구 응암로 210 (응암동),t,GSC,t,2075,2020,37.590678984526534,126.91756106735376,지에스칼텍스㈜ 서부주유소,02-302-6041,A0000630
317,경기 고양시 덕양구  행주로 59 (행주내동),t,HDO,t,2045,1965,37.60410563327744,126.82516606672706,산성주유소,031-970-5151,A0005609
318,경기 고양시 덕양구 자유로 487 (행주외동),t,SKE,t,2047,1967,37.60408828532597,126.82206430010727,자유제일주유소,031-971-8533,A0005180
319,서울 강서구 양천로 176,t,GSC,t,2128,2076,37.5729123383583,126.82334775275113,대성석유(주)방화대성주유소,02-3663-7781,A0033214
320,경기 고양시 덕양구 행주로 104 (행주내동),t,HDO,t,2045,1965,37.607733386503,126.82301383166175,일광에너비스 행주내동점,031-973-5151,A0009754
321,경기 고양시 덕양구 권율대로 450-1,t,SKE,t,2087,2037,37.63154890190426,126.86467761798802,서오능SELF주유소,031-966-1632,A0033063
322,경기 고양시 덕양구 수원문산고속도로 52,t,GSC,t,2069,2009,37.630701071612535,126.85175472399732,고양(문산방향)휴게소주유소,031-979-5837,A0033510
323,경기 고양시 덕양구 수원문산고속도로 51 (성사동),t,GSC,t,2099,2039,37.63035907675362,126.8497166342637,고양(서울방향)주유소/충전소,031-969-9480,A0033509
324,경기 고양시 덕양구 충장로 142 (행신동),t,RTO,t,2045,1965,37.62491748211531,126.83542574905559,덕양주유소,031-979-8426,A0005181
325,서울 은평구 통일로 600 (녹번동),t,GSC,t,2088,2018,37.60043694701481,126.93629603388572,지에스칼텍스㈜ 녹번주유소,02-385-5002,A0000631
326,서울 서대문구 통일로 455 (홍제동),t,HDO,t,2067,1997,37.588936430151094,126.94347574031757,(주)창원이엔지 홍제지점,02-379-0753,A0000585
327,서울 은평구 서오릉로 41 (녹번동),t,ETC,t,2186,2086,37.60437181718042,126.92417348436682,코끼리주유소,02-384-4000,A0000704
328,서울 은평구 통일로 642,t,GSC,t,2067,1997,37.60395883610962,126.93525204760036,대성산업㈜ 대성주유소,02-355-3434,A0000683
329,서울 서대문구 세검정로 87 (홍제동),t,SOL,t,2139,2079,37.595400495994795,126.9484219467019,㈜우남에너지 문화사랑주유소,02-395-4300,A0000632
330,서울 종로구 자하문로 303,t,SOL,t,2189,2089,37.59921241772761,126.95906998430368,안풍주유소,02-396-5151,A0000064
331,서울 종로구 자하문로 248 (부암동),t,SKE,t,2189,2089,37.596261520776885,126.96408761979603,자하문주유소,02-396-5252,A0000069
332,서울 은평구 연서로 314 (불광동),t,HDO,t,2064,1994,37.62314770907067,126.92789547069603,불광주유소,02-382-5149,A0000725
333,서울 은평구 통일로 924 (불광동),t,SKE,t,2088,2079,37.62522327508668,126.92032397402645,은평뉴타운주유소,02-355-0349,A0000687
334,서울 은평구 통일로 945 (갈현동),t,SKE,t,2088,2079,37.62767503204841,126.91917380140349,박석고개주유소,02-388-0477,A0000745
335,서울 종로구 평창문화로 90 (평창동),t,SOL,t,2250,2150,37.60664489772117,126.97108541272215,구도일주유소특종,02-379-6524,A0002211
336,서울 은평구 통일로 968 (진관동),t,GSC,t,2108,2099,37.63031546293974,126.91948004523145,성원이앤에스(주)은평지점,02-352-4451,A0000680
337,서울 종로구 평창문화로 135 (평창동),t,HDO,t,2189,2089,37.609623978238204,126.97457765574968,㈜지에스이앤알 평창주유소,02-391-5185,A0000035
338,서울 종로구 평창문화로 137,t,SKE,t,2568,2538,37.60976925140887,126.97486853496808,SK북악주유소,02-395-6500,A0000045
339,서울 은평구 통일로 1031,t,SOL,t,2125,2115,37.63455905475174,126.91663768638362,뉴타운셀프주유소,02-355-3055,A0033131
340,서울 성북구 창경궁로 324,t,SOL,t,2099,2077,37.587929570760984,127.00553009028863,삼선주유소,02-766-5105,A0026419
341,서울 성북구 정릉로 218 (정릉동),t,HDO,t,2057,2017,37.60539769543454,127.00852077996964,현대오일뱅크㈜직영 북악셀프주유소,02-911-5189,A0009511
342,서울 성북구 아리랑로 96 (정릉동),t,HDO,t,2077,2037,37.60045554328841,127.01411222580461,현대오일뱅크㈜직영 아리랑주유소,02-941-5189,A0009514
343,서울 성북구 보국문로 35 (정릉동),t,GSC,t,2039,1979,37.60767703937058,127.00994582355932,(주)삼표에너지 정릉주유소,02-914-6556,A0009507
344,서울 성북구 보국문로 52,t,HDO,t,2039,1979,37.609122370542096,127.00998914470398,이케이에너지(주) 강산제2주유소,02-942-1448,A0009492
345,서울 성북구 삼양로 78 (길음동),t,HDO,t,2079,2049,37.61023233861968,127.02272279067441,재정제2주유소 길음지점,02-980-1311,A0009488
346,서울 성북구 종암로 145 (종암동),t,GSC,t,2058,2028,37.60269975653517,127.03198877374533,지에스칼텍스(주) 종암주유소,02-921-7785,A0009520
347,서울 성북구 동소문로 323,t,GSC,t,2082,2053,37.608736398951194,127.0295796221429,지에스칼텍스㈜ 세창주유소,02-988-2491,A0032713
348,서울 성북구 종암로 58,t,SKE,t,2057,2027,37.5954560451045,127.03597195049475,중앙에너비스 종암지점,070-8707-4565,A0009502
349,서울 성북구 종암로 12 (종암동),t,HDO,t,2055,2025,37.59163396300343,127.03663374610225,현대오일뱅크㈜직영 고대셀프주유소,02-912-5151,A0009508
350,서울 강북구 삼양로 217 (미아동),t,SKE,t,2059,1979,37.6227310828164,127.01911190912166,SK에너지(주) 매일주유소,02-982-8855,A0009665
351,서울 성북구 화랑로 27,t,GSC,t,2039,1999,37.60304935413855,127.03540747877291,㈜명연에너지 효성주유소,02-942-5150,A0009480
352,서울 성북구 화랑로 110 (하월곡동),t,SOL,t,2057,2028,37.60356634118995,127.04380478704832,장위주유소,02-6498-5189,A0009486
353,서울 성북구 화랑로 174,t,SOL,t,2065,2036,37.60681050677689,127.05003364281761,(주)신용 구도일주유소화랑로,02-963-0051,A0009501
354,서울 성북구 화랑로 185,t,GSC,t,2080,2055,37.60788559617947,127.05068431918487,지에스칼텍스㈜ 화랑주유소,02-942-5152,A0009121
355,서울 동대문구 망우로 90 (휘경동),t,SKE,t,2068,2038,37.59006769654031,127.06299801516295,(주)안국에너지 삼원셀프주유소,02-2244-1972,A0009254
356,서울 동대문구 이문로 191 (이문동),t,SOL,t,2075,2045,37.60354652047594,127.06174518772673,(주)경동주유소,02-965-6006,A0009182
357,서울 동대문구 망우로 126,t,GSC,t,2039,2020,37.59115961219763,127.06704889354496,(주)파랑에너지,02-2242-5145,A0009218
358,서울 성북구 월계로 84 (장위동),t,SOL,t,2087,2057,37.61317648706603,127.03791627248735,신동방주유소,02-918-5151,A0009496
359,서울 동대문구 한천로 414,t,SKE,t,2099,2073,37.597485371511965,127.06800000383193,동서울고속주유소,02-969-1144,A0009222
360,서울 성북구 월계로 128 (장위동),t,SKE,t,2084,2054,37.616092860805,127.04080497832575,SK에너지(주) 드림랜드주유소,02-916-9906,A0009515
361,서울 성북구 돌곶이로 142 (장위동),t,RTO,t,2038,1998,37.61483328298391,127.05268540599774,원천주유소,070-4063-1057,A0000335
362,서울 중랑구 망우로 170 (상봉동),t,SOL,t,2039,2019,37.59243040784924,127.07189894807807,(주)태영 구도일주유소 한인,02-438-5151,A0002227
363,서울 성북구 화랑로 292,t,SKE,t,2077,2047,37.612557328974646,127.06139628450279,우리주유소,02-969-5185,A0009490
364,서울 성북구 한천로 612 (장위동),t,HDO,t,2077,2047,37.613482011158176,127.06027596583192,현대오일뱅크㈜직영 장삼주유소,02-909-0314,A0009512
365,서울 강북구 도봉로 122 (미아동),t,GSC,t,2049,1959,37.61994244888334,127.02900203717273,㈜지에스이앤알 미아주유소,02-987-5152,A0009609
366,서울 강북구 월계로 195 (번동),t,SKE,t,2084,2054,37.621632493599755,127.04549647330086,에덴주유소,02-987-8182,A0009603
367,서울 중랑구 동일로 627 (면목동),t,SKE,t,2029,1979,37.58628812387046,127.07954105665507,면목SELF주유소,02-437-4072,A0009158
368,서울 중랑구 동일로 654 (면목동),t,SOL,t,2029,1979,37.588884418162486,127.08028028033895,구도일주유소 동천,02-495-0081,A0009217
369,서울 중랑구 동일로 636 (면목동),t,HDO,t,2029,1979,37.5871790979543,127.0801635925936,(주)자연에너지 대창주유소,02-434-1448,A0009203
370,서울 중랑구 동일로 600,t,GSC,t,2029,1979,37.583972406012485,127.0800726406488,대원주유소,02-438-6111,A0009180
371,서울 노원구 월계로 252 (월계동),t,GSC,t,2084,2054,37.62445447357916,127.05062634462912,월계주유소,02-917-7650,A0010090
372,서울 중랑구 동일로 881 (묵동),t,SOL,t,2099,2069,37.60925589036606,127.0776420769759,범아주유소,02-974-8356,A0009220
373,서울 중랑구 봉우재로 105 (상봉동),t,GSC,t,2029,1978,37.59249133348052,127.08490590205034,대양주유소,02-437-5457,A0009130
374,서울 강북구 도봉로 200 (미아동),t,SOL,t,2045,1965,37.62638779923563,127.02642565733949,씨앤에스에너지㈜ 미아셀프주유소,02-945-7999,A0000394
375,서울 노원구 광운로 95 (월계동),t,GSC,t,2098,2068,37.625119689288816,127.05985936030741,성북역주유소,02-919-8141,A0010123
376,서울 노원구 월계로 328 (월계동),t,SOL,t,2098,2088,37.62861938002252,127.05699839543355,신성주유소,02-916-4334,A0010117
377,서울 노원구 동일로 1008 (공릉동),t,GSC,t,2129,2109,37.62031051722611,127.07498464864396,노원주유소,02-949-5151,A0001078
378,서울 노원구 화랑로 466 (공릉1동),t,GSC,t,2075,2045,37.61849263030066,127.07905560851444,이엠석유(주)배꽃나라주유소,02-973-5172,A0010121
379,서울 강북구 한천로 918 (번동),t,SKE,t,2058,2018,37.634202152852836,127.03769406417831,세원주유소,02-907-6890,A0009535
380,서울 노원구 화랑로 483,t,HDO,t,2035,1985,37.61950477772698,127.08059509143428,화랑대주유소,02-977-9697,A0010118
381,서울 중랑구 상봉로 58 (망우동),t,SKE,t,2179,2158,37.59092872131677,127.09369051345672,신일셀프주유소,02-436-3651,A0010071
382,서울 중랑구 용마산로 309 (면목동),t,SKE,t,2098,2058,37.57976317659582,127.09221838441239,용마로주유소,02-439-3037,A0010081
383,서울 노원구 동일로 1089 (공릉동),t,SKE,t,2038,1995,37.62692379717637,127.07190963615773,한신주유소,02-974-5151,A0010095
384,서울 강북구 삼양로 316 (수유동),t,HDO,t,2049,1959,37.63164685390515,127.01786198841394,(주)석산에너지,02-980-1448,A0009641
385,서울 강북구 덕릉로 158 (번동),t,SOL,t,2053,1975,37.63491395267849,127.03127653851719,덕릉로주유소,02-989-9806,A0009610
386,서울 강북구 한천로 963 (번동),t,HDO,t,2057,1977,37.635496114907866,127.03285606156008,현대오일뱅크(주)직영 번동셀프주유소,02-992-3331,A0009640
387,경기 고양시 덕양구 서오릉로 712 (원흥동),t,HDO,t,2045,1965,37.64009045289602,126.86539943294302,(주)원흥 원흥동지점,031-963-5189,A0005463
388,경기 고양시 덕양구 권율대로 593 (원흥동),t,SOL,t,2070,1975,37.64326287420087,126.87197695898465,㈜중흥에너지 한양주유소,031-903-2222,A0033168
389,경기 고양시 덕양구 흥도로 404 (성사동),t,HDO,t,2078,2018,37.64056262754523,126.85087257689027,삼호주유소,031-966-5599,A0005238
390,경기 고양시 덕양구 서오릉로 832 (성사동),t,SKE,t,2045,1965,37.6464678142511,126.85504221139051,덕양제1주유소,031-966-5194,A0000644
391,경기 고양시 덕양구 고양대로 1900 (동산동),t,GSC,t,2087,1997,37.643563198235476,126.89056314945046,동원주유소,02-381-3030,A0000663
392,경기 고양시 덕양구 고양대로 1926,t,SKE,t,2067,1967,37.644480561139574,126.89337629061254,(주)블루웰오일 동산주유소,02-358-5188,A0005418
393,경기 고양시 덕양구 고양대로 1960 (동산동),t,SOL,t,2087,1997,37.64573062153508,126.89696292330788,삼송뉴시티주유소,02-359-5145,A0015996
394,경기 고양시 덕양구 고양대로 1464 (성사동),t,HDO,t,2047,1967,37.651492778225716,126.84602308361193,오토파워주유소,031-965-0085,A0011916
395,경기 고양시 덕양구 충장로 210,t,HDO,t,2095,2035,37.63089693226779,126.83720677622257,㈜케이엘페트로 고양셀프주유소,031-938-5186,A0005522
396,경기 고양시 덕양구 신원1로 93,t,GSC,t,2085,1995,37.65975184290547,126.8841595665439,㈜삼표에너지 삼송주유소,02-381-8341,A0033106
397,경기 고양시 덕양구 충장로 407,t,RTO,t,2045,1965,37.649157701030525,126.83974098591271,(주)어울림주유소,031-967-5145,A0032941
398,경기 고양시 덕양구 은빛로 59,t,GSC,t,2068,2025,37.63786980165838,126.83432318511363,대성석유(주)스타주유소,031-968-7421,A0005481
399,경기 고양시 덕양구 통일로 226 (삼송동),t,HDO,t,2077,1998,37.65614894689102,126.89808298309529,삼송서진주유소,02-381-5156,A0011920
400,경기 고양시 덕양구 화중로 38 (화정동),t,HDO,t,2065,2028,37.630563632237,126.83040165208313,현대오일뱅크㈜직영 화정셀프주유소,031-972-5145,A0005493
401,경기 고양시 덕양구 호국로 624 (화정동),t,HDO,t,2045,1965,37.64312155340692,126.82982206415427,현대오일뱅크㈜직영 화정2호셀프주유소,031-964-0014,A0005508
402,경기 고양시 덕양구 호국로 730 (성사동),t,SOL,t,2047,1963,37.65225570641832,126.8325597738222,고양주유소,031-962-5534,A0001896
403,경기 고양시 덕양구 중앙로 637,t,GSC,t,2068,2017,37.62720658991979,126.82772605498596,지에스칼텍스㈜ 토당주유소,031-979-5020,A0005070
404,서울 은평구 통일로 1151 (진관동),t,HDO,t,2088,2017,37.64395342120734,126.9121893325461,현대오일뱅크㈜직영 은평드림주유소,02-354-5182,A0000686
405,경기 고양시 덕양구 호국로 932,t,SOL,t,2067,1977,37.6660176731425,126.84720543285916,목장주유소,031-967-8805,A0000110
406,경기 고양시 덕양구 호국로 992,t,GSC,t,2055,1975,37.67053724295423,126.85076616706611,그린주유소,031-973-5189,A0008577
407,경기 고양시 덕양구 고양대로 1303 (주교동),t,HDO,t,2085,1995,37.65694987093142,126.82929061147979,삼원주유소,031-965-2062,A0005157
408,경기 고양시 덕양구 지도로 8,t,GSC,t,2084,2013,37.61769914734095,126.82480049388393,지에스칼텍스㈜ 능곡주유소,031-973-2282,A0000876
409,경기 고양시 덕양구 지도로 15 (토당동),t,HDO,t,2045,1965,37.618481512755196,126.82420760022445,현대오일뱅크㈜직영 능곡역주유소,031-979-0314,A0005503
410,경기 고양시 덕양구 호국로 430(토당동),t,SKE,t,2065,1995,37.628281620651315,126.81985812264095,SK화정주유소,031-978-0048,A0011919
411,경기 고양시 덕양구 호국로 1259,t,RTO,t,2045,1965,37.67684079958947,126.87613157141433,너멍골알뜰주유소,02-371-2264,A0005163
412,경기 고양시 덕양구 토당로 104 (토당동),t,SKE,t,2065,1995,37.6243698098974,126.81756913175906,(주)원일유통 능곡주유소,031-972-7311,A0005443
413,경기도 고양시 덕양구  고양대로 1242 (주교동),t,GSC,t,2169,2069,37.661005019099186,126.82504088144213,꽃마을주유소,031-963-2844,A0005109
414,경기 고양시 덕양구 일영로 127 (지축동),t,GSC,t,2095,2045,37.65748521382733,126.91992502550806,효자로주유소,02-381-1371,A0011915
415,경기 고양시 덕양구 북한산로 539 (효자동),t,HDO,t,2045,1975,37.67294826170493,126.95497708791116,북한산주유소,02-384-4666,A0005103
416,경기 양주시 장흥면 수도권제1순환고속도로 58,t,SKE,t,2088,2038,37.67889754111341,126.91555117039238,KH에너지㈜직영 양주주유소(일산방향),031-871-2996,A0032669
417,서울 강북구 인수봉로 185 (수유동),t,HDO,t,2049,1959,37.63614115687585,127.01278140528801,(주)서울에너지 시민주유소,02-907-9496,A0000189
418,서울 강북구 삼양로 410 (수유동),t,SKE,t,2049,1959,37.64012102283281,127.01716307827567,북서울고속주유소,02-907-5182,A0009678
419,서울 강북구 삼양로 484,t,GSC,t,2088,2037,37.64611762269389,127.01538992297812,대성석유(주)신광주유소,02-908-3320,A0009645
420,서울 도봉구 노해로 161 (쌍문동),t,HDO,t,2098,2058,37.648948359111884,127.02684670576954,(주)쌍문셀프주유소,02-998-9704,A0009677
421,서울 강북구 도봉로 395 (수유동),t,GSC,t,2049,1959,37.642100950332605,127.02957516893258,수유동주유소,02-902-9470,A0009608
422,서울 도봉구 도봉로 437 (쌍문동),t,SKE,t,2079,1999,37.64489552315331,127.03205553354746,삼미북부셀프주유소,02-992-5561,A0009642
423,서울 도봉구  도봉로 434 (창동),t,SKE,t,2069,1988,37.64454140542232,127.03270505694655,동일석유(주) 창동주유소,02-902-5544,A0010146
424,서울 도봉구 덕릉로 267 (창동),t,GSC,t,0,1984,37.64125934665082,127.04016951485727,대성산업(주)신창주유소,02-905-4441,A0010144
425,서울 도봉구 해등로3길 86 (창동),t,SOL,t,0,1987,37.646749554915004,127.03940776413377,구도일주유소 파크빌,02-906-5104,A0000074
426,서울 도봉구 도봉로 547 (쌍문동),t,SOL,t,0,1959,37.65396063726639,127.03752443316938,한이에너지(주) 쌍문주유소,02-992-0220,A0032674
427,서울 노원구 노원로17길 29 (하계동),t,HDO,t,0,2065,37.642229123731646,127.07038643587202,현대오일뱅크㈜직영 하계주유소,02-975-1386,A0009663
428,서울 도봉구 마들로 574 (창동),t,SOL,t,0,1979,37.661477190217916,127.04749899876902,극동유화(주) 대안주유소,02-996-6640,A0010135
429,서울 도봉구 방학로 151,t,HDO,t,0,2027,37.66231044016025,127.03519422321317,현대오일뱅크㈜직영 영신주유소,02-956-5152,A0009669
430,서울 노원구 공릉로 294 (하계동),t,GSC,t,0,2269,37.633637456925655,127.0721288502212,하계삼호주유소,02-974-8818,A0010108
431,서울 도봉구 방학로 142 (방학동),t,HDO,t,0,1959,37.66292594722993,127.03641153339463,(주)자연에너지 햇살주유소,02-954-4555,A0009676
432,서울 도봉구 방학로 186,t,GSC,t,0,2035,37.66234256289923,127.03141054203144,지에스칼텍스㈜ 방학동주유소,02-3493-5189,A0009599
433,서울 도봉구 방학로 43,t,SOL,t,0,2124,37.66227809458193,127.04741317565782,오복주유소,02-3494-1500,A0009575
434,서울 노원구 노해로 527 (상계동),t,SKE,t,0,2069,37.65592219217387,127.06652557048956,SK에너지㈜직영 상계주유소,02-930-5151,A0010136
435,서울 도봉구 도봉로 706 (방학동),t,SOL,t,0,1959,37.667401560723015,127.0435456121932,(주)헨지스에너지 구도일주유소 도봉,02-3491-3454,A0009680
436,서울 노원구 노원로26길 191 (상계동),t,HDO,t,0,2160,37.6583663910541,127.07113638907515,상계동주유소,02-936-5035,A0010124
437,서울 노원구 한글비석로 268 (중계동),t,SOL,t,0,2069,37.65132240481802,127.07719840007988,남선석유(주)구도일주유소 불암,02-932-6850,A0010111
438,서울 도봉구 도봉로 783 (도봉동),t,HDO,t,0,1959,37.67439808123815,127.0440811747511,도봉제일주유소(주)송만에너지,02-955-5185,A0009668
439,서울 노원구 노원로 49 (공릉동),t,SOL,t,0,2055,37.62580286504768,127.08532345435661,태릉솔밭주유소,02-976-5189,A0010104
440,서울 도봉구 마들로 776 (도봉동),t,HDO,t,0,2068,37.678936782748366,127.0496732914919,노원교주유소,02-956-5189,A0009845
